[
    {
        "name": "Gandhipuram Bus Stand, Coimbatore",
        "lat": 11.0175,
        "lng": 76.9681
    },
    {
        "name": "RS Puram, Coimbatore",
        "lat": 11.0097,
        "lng": 76.9448
    },
    {
        "name": "Peelamedu, Coimbatore",
        "lat": 11.0305,
        "lng": 77.0161
    },
    {
        "name": "Saravanampatti, Coimbatore",
        "lat": 11.0760,
        "lng": 77.0003
    },
    {
        "name": "KIT - Kalaignar Karunanidhi Institute of Technology, Coimbatore",
        "lat": 11.0142,
        "lng": 77.0851
    },
    {
        "name": "Kuniyamuthur, Coimbatore",
        "lat": 10.9600,
        "lng": 76.9400
    },
    {
        "name": "Eachanari, Coimbatore",
        "lat": 10.9167,
        "lng": 76.9667
    },
    {
        "name": "Mettupalayam, Coimbatore",
        "lat": 11.3003,
        "lng": 76.9407
    },
    {
        "name": "Pollachi, Coimbatore",
        "lat": 10.6588,
        "lng": 77.0031
    },
    {
        "name": "Annur, Coimbatore",
        "lat": 11.2333,
        "lng": 77.1333
    },
    {
        "name": "Karumathampatti, Coimbatore",
        "lat": 11.1167,
        "lng": 77.1833
    },
    {
        "name": "Valparai, Coimbatore",
        "lat": 10.3275,
        "lng": 76.9550
    },
    {
        "name": "Thudiyalur, Coimbatore",
        "lat": 11.0667,
        "lng": 76.9500
    },
    {
        "name": "Chennai Central, Chennai",
        "lat": 13.0827,
        "lng": 80.2707
    },
    {
        "name": "Guindy Industrial Estate, Chennai",
        "lat": 13.0067,
        "lng": 80.2206
    },
    {
        "name": "Sholinganallur (OMR), Chennai",
        "lat": 12.9010,
        "lng": 80.2279
    },
    {
        "name": "T-Nagar, Chennai",
        "lat": 13.0418,
        "lng": 80.2341
    },
    {
        "name": "Chennai Airport, Chennai",
        "lat": 12.9941,
        "lng": 80.1709
    },
    {
        "name": "Anna Nagar, Chennai",
        "lat": 13.0850,
        "lng": 80.2101
    },
    {
        "name": "Velachery, Chennai",
        "lat": 12.9784,
        "lng": 80.2185
    },
    {
        "name": "Tambaram, Chennai",
        "lat": 12.9249,
        "lng": 80.1272
    },
    {
        "name": "Koyambedu (CMBT), Chennai",
        "lat": 13.0667,
        "lng": 80.2000
    },
    {
        "name": "Siruseri (SIPCOT), Chennai",
        "lat": 12.8250,
        "lng": 80.2167
    },
    {
        "name": "Mahindra World City, Chengalpattu",
        "lat": 12.7094,
        "lng": 80.0016
    },
    {
        "name": "Maraimalai Nagar, Chengalpattu",
        "lat": 12.8020,
        "lng": 80.0210
    },
    {
        "name": "Guduvanchery, Chengalpattu",
        "lat": 12.8441,
        "lng": 80.0592
    },
    {
        "name": "Madurai Meenakshi Temple, Madurai",
        "lat": 9.9195,
        "lng": 78.1193
    },
    {
        "name": "Mattuthavani Bus Stand, Madurai",
        "lat": 9.9391,
        "lng": 78.1568
    },
    {
        "name": "Thirumangalam, Madurai",
        "lat": 9.8236,
        "lng": 77.9894
    },
    {
        "name": "Usilampatti, Madurai",
        "lat": 9.9667,
        "lng": 77.8000
    },
    {
        "name": "Melur, Madurai",
        "lat": 10.0500,
        "lng": 78.3333
    },
    {
        "name": "Tiruchirappalli Junction, Trichy",
        "lat": 10.8050,
        "lng": 78.6853
    },
    {
        "name": "BHEL Township, Trichy",
        "lat": 10.7719,
        "lng": 78.8091
    },
    {
        "name": "Srirangam, Trichy",
        "lat": 10.8621,
        "lng": 78.6903
    },
    {
        "name": "Thuvakudi (Industrial), Trichy",
        "lat": 10.7500,
        "lng": 78.8000
    },
    {
        "name": "Salem Junction, Salem",
        "lat": 11.6667,
        "lng": 78.1167
    },
    {
        "name": "Mettur Dam, Salem",
        "lat": 11.7833,
        "lng": 77.8000
    },
    {
        "name": "Attur, Salem",
        "lat": 11.5947,
        "lng": 78.5975
    },
    {
        "name": "Tiruppur Railway Station, Tiruppur",
        "lat": 11.1085,
        "lng": 77.3411
    },
    {
        "name": "Avinashi, Tiruppur",
        "lat": 11.1936,
        "lng": 77.2681
    },
    {
        "name": "Dharapuram, Tiruppur",
        "lat": 10.7333,
        "lng": 77.5167
    },
    {
        "name": "Udumalaipettai, Tiruppur",
        "lat": 10.5833,
        "lng": 77.2500
    },
    {
        "name": "Tirunelveli Junction, Tirunelveli",
        "lat": 8.7167,
        "lng": 77.6833
    },
    {
        "name": "Palayamkottai, Tirunelveli",
        "lat": 8.7180,
        "lng": 77.7470
    },
    {
        "name": "Ambasamudram, Tirunelveli",
        "lat": 8.7000,
        "lng": 77.4500
    },
    {
        "name": "Vellore Fort, Vellore",
        "lat": 12.9165,
        "lng": 79.1325
    },
    {
        "name": "Katpadi Junction, Vellore",
        "lat": 12.9691,
        "lng": 79.1378
    },
    {
        "name": "Gudiyatham, Vellore",
        "lat": 12.9167,
        "lng": 78.8667
    },
    {
        "name": "Erode Junction, Erode",
        "lat": 11.3410,
        "lng": 77.7170
    },
    {
        "name": "Perundurai (SIPCOT), Erode",
        "lat": 11.2721,
        "lng": 77.5847
    },
    {
        "name": "Bhavani, Erode",
        "lat": 11.4500,
        "lng": 77.6833
    },
    {
        "name": "Tuticorin Port, Thoothukudi",
        "lat": 8.7530,
        "lng": 78.1700
    },
    {
        "name": "Kovilpatti (Match Hub), Thoothukudi",
        "lat": 9.1667,
        "lng": 77.8667
    },
    {
        "name": "Thanjavur Big Temple, Thanjavur",
        "lat": 10.7828,
        "lng": 79.1318
    },
    {
        "name": "Kumbakonam, Thanjavur",
        "lat": 10.9602,
        "lng": 79.3845
    },
    {
        "name": "Pattukkottai, Thanjavur",
        "lat": 10.4333,
        "lng": 79.3167
    },
    {
        "name": "Hosur Industrial Hub, Hosur",
        "lat": 12.7409,
        "lng": 77.8253
    },
    {
        "name": "Dharmapuri, Dharmapuri",
        "lat": 12.1333,
        "lng": 78.1667
    },
    {
        "name": "Krishnagiri, Krishnagiri",
        "lat": 12.5333,
        "lng": 78.2167
    },
    {
        "name": "Kanchipuram Temple City, Kanchipuram",
        "lat": 12.8342,
        "lng": 79.7036
    },
    {
        "name": "Sriperumbudur (Auto Hub), Kanchipuram",
        "lat": 12.9667,
        "lng": 79.9500
    },
    {
        "name": "Nagercoil, Kanyakumari",
        "lat": 8.1833,
        "lng": 77.4167
    },
    {
        "name": "Kanyakumari Pier, Kanyakumari",
        "lat": 8.0883,
        "lng": 77.5385
    },
    {
        "name": "Dindigul, Dindigul",
        "lat": 10.3667,
        "lng": 77.9667
    },
    {
        "name": "Karur (Textile Hub), Karur",
        "lat": 10.9601,
        "lng": 78.0766
    },
    {
        "name": "Namakkal, Namakkal",
        "lat": 11.2189,
        "lng": 78.1673
    },
    {
        "name": "Sivakasi (Fireworks), Virudhunagar",
        "lat": 9.4500,
        "lng": 77.8167
    },
    {
        "name": "Virudhunagar, Virudhunagar",
        "lat": 9.5840,
        "lng": 77.9514
    },
    {
        "name": "Tiruvannamalai Temple, Tiruvannamalai",
        "lat": 12.2333,
        "lng": 79.0667
    },
    {
        "name": "Ooty Charring Cross, Nilgiris",
        "lat": 11.4102,
        "lng": 76.7032
    },
    {
        "name": "Coonoor, Nilgiris",
        "lat": 11.3530,
        "lng": 76.7959
    },
    {
        "name": "Gudalur, Nilgiris",
        "lat": 11.5000,
        "lng": 76.5000
    },
    {
        "name": "Nagapattinam Port, Nagapattinam",
        "lat": 10.7667,
        "lng": 79.8333
    },
    {
        "name": "Cuddalore Port, Cuddalore",
        "lat": 11.7500,
        "lng": 79.7667
    },
    {
        "name": "Neyveli Lignite Corp, Cuddalore",
        "lat": 11.6000,
        "lng": 79.4833
    },
    {
        "name": "Karaikudi, Sivaganga",
        "lat": 10.0733,
        "lng": 78.7733
    },
    {
        "name": "Sivaganga, Sivaganga",
        "lat": 9.8433,
        "lng": 78.4833
    },
    {
        "name": "Mayiladuthurai, Mayiladuthurai",
        "lat": 11.1009,
        "lng": 79.6580
    },
    {
        "name": "Tiruvarur, Tiruvarur",
        "lat": 10.7667,
        "lng": 79.6333
    },
    {
        "name": "Pudukkottai, Pudukkottai",
        "lat": 10.3833,
        "lng": 78.8167
    },
    {
        "name": "Ramanathapuram, Ramanathapuram",
        "lat": 9.3667,
        "lng": 78.8333
    },
    {
        "name": "Rameswaram Temple, Ramanathapuram",
        "lat": 9.2881,
        "lng": 79.3174
    },
    {
        "name": "Paramakudi, Ramanathapuram",
        "lat": 9.5461,
        "lng": 78.5886
    },
    {
        "name": "Aruppukkottai, Virudhunagar",
        "lat": 9.5100,
        "lng": 78.1000
    },
    {
        "name": "Tenkasi, Tenkasi",
        "lat": 8.9500,
        "lng": 77.3000
    },
    {
        "name": "Ambur (Leather), Tirupathur",
        "lat": 12.7833,
        "lng": 78.7000
    },
    {
        "name": "Vaniyambadi, Tirupathur",
        "lat": 12.6833,
        "lng": 78.6167
    },
    {
        "name": "Tirupathur, Tirupathur",
        "lat": 12.4833,
        "lng": 78.5667
    },
    {
        "name": "Sathyamangalam, Erode",
        "lat": 11.5033,
        "lng": 77.2433
    },
    {
        "name": "Gobichettipalayam, Erode",
        "lat": 11.4500,
        "lng": 77.4333
    },
    {
        "name": "Oddanchatram (Vegetable Market), Dindigul",
        "lat": 10.4833,
        "lng": 77.7500
    },
    {
        "name": "Palani Temple, Dindigul",
        "lat": 10.4500,
        "lng": 77.5167
    },
    {
        "name": "Theni Bus Stand, Theni",
        "lat": 10.0167,
        "lng": 77.4833
    },
    {
        "name": "Cumbum, Theni",
        "lat": 9.7333,
        "lng": 77.2833
    },
    {
        "name": "Bodinayakanur, Theni",
        "lat": 10.0167,
        "lng": 77.3500
    },
    {
        "name": "Ariyalur, Ariyalur",
        "lat": 11.1333,
        "lng": 79.0833
    },
    {
        "name": "Perambalur, Perambalur",
        "lat": 11.2333,
        "lng": 78.8833
    },
    {
        "name": "Kallakurichi, Kallakurichi",
        "lat": 11.7333,
        "lng": 78.9667
    },
    {
        "name": "Villupuram Junction, Villupuram",
        "lat": 11.9333,
        "lng": 79.4833
    },
    {
        "name": "Tindivanam, Villupuram",
        "lat": 12.2333,
        "lng": 79.6500
    },
    {
        "name": "Thiruvallur, Thiruvallur",
        "lat": 13.1433,
        "lng": 79.9100
    },
    {
        "name": "Ranipet (Industrial Hub), Ranipet",
        "lat": 12.9267,
        "lng": 79.3333
    },
    {
        "name": "Arakkonam Junction, Ranipet",
        "lat": 13.0833,
        "lng": 79.6667
    },
    {
        "name": "Arani (Silk City), Tiruvannamalai",
        "lat": 12.6667,
        "lng": 79.2833
    },
    {
        "name": "Chengalpattu Junction, Chengalpattu",
        "lat": 12.6833,
        "lng": 79.9833
    },
    {
        "name": "Vedaranyam, Nagapattinam",
        "lat": 10.3800,
        "lng": 79.8500
    },
    {
        "name": "Sankarankovil, Tenkasi",
        "lat": 9.1667,
        "lng": 77.5333
    },
    {
        "name": "Tiruchendur Temple, Thoothukudi",
        "lat": 8.4900,
        "lng": 78.1200
    },
    {
        "name": "Vellore Institute of Technology (VIT), Vellore",
        "lat": 12.9692,
        "lng": 79.1559
    },
    {
        "name": "Kodaikanal Lake, Dindigul",
        "lat": 10.2333,
        "lng": 77.4833
    },
    {
        "name": "Yercaud, Salem",
        "lat": 11.7833,
        "lng": 78.2167
    },
    {
        "name": "Pollachi Junction, Coimbatore",
        "lat": 10.6588,
        "lng": 77.0031
    },
    {
        "name": "Neyveli Township, Cuddalore",
        "lat": 11.6000,
        "lng": 79.4833
    },
    {
        "name": "Chidambaram Temple, Cuddalore",
        "lat": 11.4000,
        "lng": 79.7000
    },
    {
        "name": "Panruti (Jackfruit Hub), Cuddalore",
        "lat": 11.7667,
        "lng": 79.5500
    },
    {
        "name": "Thiruthuraipoondi, Tiruvarur",
        "lat": 10.5333,
        "lng": 79.6500
    },
    {
        "name": "Nannilam, Tiruvarur",
        "lat": 10.8833,
        "lng": 79.6167
    },
    {
        "name": "Sirkazhi, Mayiladuthurai",
        "lat": 11.2333,
        "lng": 79.7333
    },
    {
        "name": "Vaitheeswaran Koil, Mayiladuthurai",
        "lat": 11.2000,
        "lng": 79.7167
    },
    {
        "name": "Jayankondam, Ariyalur",
        "lat": 11.2167,
        "lng": 79.3500
    },
    {
        "name": "Sendurai, Ariyalur",
        "lat": 11.2333,
        "lng": 79.1667
    },
    {
        "name": "Veppur, Cuddalore",
        "lat": 11.5167,
        "lng": 79.0333
    },
    {
        "name": "Ulundurpet, Kallakurichi",
        "lat": 11.6833,
        "lng": 79.2833
    },
    {
        "name": "Tirukoilur, Kallakurichi",
        "lat": 11.9667,
        "lng": 79.2000
    },
    {
        "name": "Sankarapuram, Kallakurichi",
        "lat": 11.8833,
        "lng": 78.9167
    },
    {
        "name": "Chengam, Tiruvannamalai",
        "lat": 12.3000,
        "lng": 78.8000
    },
    {
        "name": "Polur, Tiruvannamalai",
        "lat": 12.5167,
        "lng": 79.1333
    },
    {
        "name": "Wandiwash, Tiruvannamalai",
        "lat": 12.5000,
        "lng": 79.6167
    },
    {
        "name": "Cheyyar, Tiruvannamalai",
        "lat": 12.6500,
        "lng": 79.4833
    }
]